{
  "type": "FeatureCollection",
  "generator": "overpass-ide",
  "copyright": "The data included in this document is from www.openstreetmap.org. The data is made available under ODbL.",
  "timestamp": "2020-06-15T19:05:02Z",
  "features": [
    {
      "type": "Feature",
      "properties": {
        "@id": "node/319258499",
        "amenity": "bar",
        "name": "Bar do Salomão"
      },
      "geometry": {
        "type": "Point",
        "coordinates": [
          -43.9198583,
          -19.9388896
        ]
      },
      "id": "node/319258499"
    },
    {
      "type": "Feature",
      "properties": {
        "@id": "node/338835579",
        "amenity": "bar",
        "name": "Villa Rizza"
      },
      "geometry": {
        "type": "Point",
        "coordinates": [
          -43.923862,
          -19.9318935
        ]
      },
      "id": "node/338835579"
    },
    {
      "type": "Feature",
      "properties": {
        "@id": "node/445445599",
        "amenity": "bar",
        "name": "Maria João"
      },
      "geometry": {
        "type": "Point",
        "coordinates": [
          -46.8561241,
          -23.4854563
        ]
      },
      "id": "node/445445599"
    },
    {
      "type": "Feature",
      "properties": {
        "@id": "node/560387242",
        "amenity": "bar"
      },
      "geometry": {
        "type": "Point",
        "coordinates": [
          -43.9353045,
          -19.9165667
        ]
      },
      "id": "node/560387242"
    },
    {
      "type": "Feature",
      "properties": {
        "@id": "node/560387248",
        "amenity": "bar",
        "historic": "monument"
      },
      "geometry": {
        "type": "Point",
        "coordinates": [
          -43.9358109,
          -19.9164537
        ]
      },
      "id": "node/560387248"
    },
    {
      "type": "Feature",
      "properties": {
        "@id": "node/700201180",
        "amenity": "bar"
      },
      "geometry": {
        "type": "Point",
        "coordinates": [
          -43.9746325,
          -19.8422402
        ]
      },
      "id": "node/700201180"
    },
    {
      "type": "Feature",
      "properties": {
        "@id": "node/745728708",
        "amenity": "bar"
      },
      "geometry": {
        "type": "Point",
        "coordinates": [
          -46.6301747,
          -23.5567912
        ]
      },
      "id": "node/745728708"
    },
    {
      "type": "Feature",
      "properties": {
        "@id": "node/745728722",
        "amenity": "bar"
      },
      "geometry": {
        "type": "Point",
        "coordinates": [
          -46.6310636,
          -23.5597761
        ]
      },
      "id": "node/745728722"
    },
    {
      "type": "Feature",
      "properties": {
        "@id": "node/745741462",
        "addr:street": "Avenida Engenheiro Caetano Alvares",
        "amenity": "bar",
        "name": "Bar do Luiz"
      },
      "geometry": {
        "type": "Point",
        "coordinates": [
          -46.6386645,
          -23.4860942
        ]
      },
      "id": "node/745741462"
    },
    {
      "type": "Feature",
      "properties": {
        "@id": "node/757424416",
        "amenity": "bar",
        "name": "Bar do Nautico Clube"
      },
      "geometry": {
        "type": "Point",
        "coordinates": [
          -45.9872917,
          -21.3997293
        ]
      },
      "id": "node/757424416"
    },
    {
      "type": "Feature",
      "properties": {
        "@id": "node/833357749",
        "amenity": "bar",
        "name": "Boteco"
      },
      "geometry": {
        "type": "Point",
        "coordinates": [
          -49.5386596,
          -25.3176158
        ]
      },
      "id": "node/833357749"
    },
    {
      "type": "Feature",
      "properties": {
        "@id": "node/833357764",
        "amenity": "bar",
        "name": "Bar do Tito"
      },
      "geometry": {
        "type": "Point",
        "coordinates": [
          -49.5300946,
          -25.3290203
        ]
      },
      "id": "node/833357764"
    },
    {
      "type": "Feature",
      "properties": {
        "@id": "node/833387808",
        "amenity": "bar",
        "name": "Bar do Nei"
      },
      "geometry": {
        "type": "Point",
        "coordinates": [
          -49.6750927,
          -25.1480427
        ]
      },
      "id": "node/833387808"
    },
    {
      "type": "Feature",
      "properties": {
        "@id": "node/833387812",
        "amenity": "bar",
        "name": "Bar Dioniz"
      },
      "geometry": {
        "type": "Point",
        "coordinates": [
          -49.5749161,
          -25.2632965
        ]
      },
      "id": "node/833387812"
    },
    {
      "type": "Feature",
      "properties": {
        "@id": "node/833467974",
        "amenity": "bar",
        "name": "Bar e mercearia do Sr. Sérgio (desativado)"
      },
      "geometry": {
        "type": "Point",
        "coordinates": [
          -49.9611507,
          -25.1428114
        ]
      },
      "id": "node/833467974"
    },
    {
      "type": "Feature",
      "properties": {
        "@id": "node/882261650",
        "addr:city": "Belo Horizonte",
        "addr:country": "BR",
        "addr:housenumber": "2130",
        "addr:street": "Rua Guajajaras",
        "amenity": "bar",
        "cuisine": "yes",
        "name": "Alad'ns Bar (Frango Frito)"
      },
      "geometry": {
        "type": "Point",
        "coordinates": [
          -43.9528477,
          -19.9222819
        ]
      },
      "id": "node/882261650"
    },
    {
      "type": "Feature",
      "properties": {
        "@id": "node/883409935",
        "amenity": "bar"
      },
      "geometry": {
        "type": "Point",
        "coordinates": [
          -43.9610914,
          -19.8577085
        ]
      },
      "id": "node/883409935"
    },
    {
      "type": "Feature",
      "properties": {
        "@id": "node/906764494",
        "amenity": "bar",
        "name": "Restaurante e Pizzaria Real"
      },
      "geometry": {
        "type": "Point",
        "coordinates": [
          -46.6822901,
          -23.5451301
        ]
      },
      "id": "node/906764494"
    },
    {
      "type": "Feature",
      "properties": {
        "@id": "node/983467253",
        "amenity": "bar",
        "name": "Bar do Cabral"
      },
      "geometry": {
        "type": "Point",
        "coordinates": [
          -43.918923,
          -19.939005
        ]
      },
      "id": "node/983467253"
    },
    {
      "type": "Feature",
      "properties": {
        "@id": "node/986578984",
        "amenity": "bar",
        "cuisine": "Brasileira",
        "name": "Oficina de Ideias",
        "wheelchair": "no"
      },
      "geometry": {
        "type": "Point",
        "coordinates": [
          -43.9405229,
          -19.9436318
        ]
      },
      "id": "node/986578984"
    },
    {
      "type": "Feature",
      "properties": {
        "@id": "node/992617694",
        "addr:housenumber": "1625",
        "addr:street": "Rua 9 de Julho",
        "amenity": "bar",
        "name": "Agua Doce"
      },
      "geometry": {
        "type": "Point",
        "coordinates": [
          -47.8929024,
          -22.0154489
        ]
      },
      "id": "node/992617694"
    },
    {
      "type": "Feature",
      "properties": {
        "@id": "node/993654819",
        "amenity": "bar"
      },
      "geometry": {
        "type": "Point",
        "coordinates": [
          -43.9439144,
          -19.9228595
        ]
      },
      "id": "node/993654819"
    },
    {
      "type": "Feature",
      "properties": {
        "@id": "node/1004651641",
        "amenity": "bar",
        "name": "Tequila's Bar e Restaurante"
      },
      "geometry": {
        "type": "Point",
        "coordinates": [
          -46.6339058,
          -23.5580327
        ]
      },
      "id": "node/1004651641"
    },
    {
      "type": "Feature",
      "properties": {
        "@id": "node/1056659344",
        "addr:housenumber": "190",
        "addr:postcode": "01423-000",
        "addr:street": "Al. José Maria Lisboa",
        "amenity": "bar",
        "name": "Bar Casa de Francisca"
      },
      "geometry": {
        "type": "Point",
        "coordinates": [
          -46.6547996,
          -23.5707183
        ]
      },
      "id": "node/1056659344"
    },
    {
      "type": "Feature",
      "properties": {
        "@id": "node/1056698096",
        "amenity": "bar"
      },
      "geometry": {
        "type": "Point",
        "coordinates": [
          -46.6569186,
          -23.5722303
        ]
      },
      "id": "node/1056698096"
    },
    {
      "type": "Feature",
      "properties": {
        "@id": "node/1056734035",
        "amenity": "bar"
      },
      "geometry": {
        "type": "Point",
        "coordinates": [
          -46.6592894,
          -23.5744157
        ]
      },
      "id": "node/1056734035"
    },
    {
      "type": "Feature",
      "properties": {
        "@id": "node/1059019970",
        "addr:city": "São Paulo",
        "addr:housenumber": "2748",
        "addr:postcode": "01402-000",
        "addr:street": "Avenida Brigadeiro Luís Antônio",
        "amenity": "bar"
      },
      "geometry": {
        "type": "Point",
        "coordinates": [
          -46.6522035,
          -23.5706906
        ]
      },
      "id": "node/1059019970"
    },
    {
      "type": "Feature",
      "properties": {
        "@id": "node/1064392833",
        "amenity": "bar",
        "name": "Bar do Dimas"
      },
      "geometry": {
        "type": "Point",
        "coordinates": [
          -45.666953,
          -22.9969899
        ]
      },
      "id": "node/1064392833"
    },
    {
      "type": "Feature",
      "properties": {
        "@id": "node/1066862944",
        "addr:street": "Alameda José Maria Lisboa",
        "amenity": "bar",
        "name": "Kuka Biruta"
      },
      "geometry": {
        "type": "Point",
        "coordinates": [
          -46.6566993,
          -23.5693382
        ]
      },
      "id": "node/1066862944"
    },
    {
      "type": "Feature",
      "properties": {
        "@id": "node/1069554688",
        "amenity": "bar"
      },
      "geometry": {
        "type": "Point",
        "coordinates": [
          -44.4469728,
          -22.2583541
        ]
      },
      "id": "node/1069554688"
    },
    {
      "type": "Feature",
      "properties": {
        "@id": "node/1087057065",
        "amenity": "bar",
        "cuisine": "yes",
        "name": "Bar do João",
        "wheelchair": "limited"
      },
      "geometry": {
        "type": "Point",
        "coordinates": [
          -43.93438,
          -19.9370383
        ]
      },
      "id": "node/1087057065"
    },
    {
      "type": "Feature",
      "properties": {
        "@id": "node/1087086179",
        "addr:street": "Rua Tomé de Souza",
        "amenity": "bar",
        "cuisine": "yes",
        "name": "Afrodic"
      },
      "geometry": {
        "type": "Point",
        "coordinates": [
          -43.9323271,
          -19.9375182
        ]
      },
      "id": "node/1087086179"
    },
    {
      "type": "Feature",
      "properties": {
        "@id": "node/1099439432",
        "amenity": "bar",
        "name": "Bar do Doca"
      },
      "geometry": {
        "type": "Point",
        "coordinates": [
          -43.9593152,
          -19.9371118
        ]
      },
      "id": "node/1099439432"
    },
    {
      "type": "Feature",
      "properties": {
        "@id": "node/1111596910",
        "amenity": "bar",
        "name": "Bar do Juarez"
      },
      "geometry": {
        "type": "Point",
        "coordinates": [
          -46.682514,
          -23.6247677
        ]
      },
      "id": "node/1111596910"
    },
    {
      "type": "Feature",
      "properties": {
        "@id": "node/1123482327",
        "amenity": "bar",
        "name": "Oratório",
        "phone": "+55 31 3241-7112"
      },
      "geometry": {
        "type": "Point",
        "coordinates": [
          -43.9217621,
          -19.924401
        ]
      },
      "id": "node/1123482327"
    },
    {
      "type": "Feature",
      "properties": {
        "@id": "node/1128195897",
        "amenity": "bar",
        "name": "Boteco"
      },
      "geometry": {
        "type": "Point",
        "coordinates": [
          -48.215392,
          -25.1068247
        ]
      },
      "id": "node/1128195897"
    },
    {
      "type": "Feature",
      "properties": {
        "@id": "node/1129423627",
        "amenity": "bar",
        "name": "Boteco"
      },
      "geometry": {
        "type": "Point",
        "coordinates": [
          -48.3355292,
          -25.4576136
        ]
      },
      "id": "node/1129423627"
    },
    {
      "type": "Feature",
      "properties": {
        "@id": "node/1130952680",
        "amenity": "bar",
        "name": "Villa Shopp"
      },
      "geometry": {
        "type": "Point",
        "coordinates": [
          -47.6330925,
          -22.7233564
        ]
      },
      "id": "node/1130952680"
    },
    {
      "type": "Feature",
      "properties": {
        "@id": "node/1132339804",
        "amenity": "bar",
        "name": "Fascina"
      },
      "geometry": {
        "type": "Point",
        "coordinates": [
          -47.6365257,
          -22.7129184
        ]
      },
      "id": "node/1132339804"
    },
    {
      "type": "Feature",
      "properties": {
        "@id": "node/1132339808",
        "amenity": "bar",
        "name": "Manga Rosa",
        "wheelchair": "limited"
      },
      "geometry": {
        "type": "Point",
        "coordinates": [
          -47.6363943,
          -22.7127278
        ]
      },
      "id": "node/1132339808"
    },
    {
      "type": "Feature",
      "properties": {
        "@id": "node/1132339809",
        "amenity": "bar",
        "name": "Boteco 6:01"
      },
      "geometry": {
        "type": "Point",
        "coordinates": [
          -47.6368608,
          -22.7128441
        ]
      },
      "id": "node/1132339809"
    },
    {
      "type": "Feature",
      "properties": {
        "@id": "node/1139177998",
        "amenity": "bar",
        "name": "Tudo na Brasa",
        "source": "survey"
      },
      "geometry": {
        "type": "Point",
        "coordinates": [
          -44.0021977,
          -19.8885279
        ]
      },
      "id": "node/1139177998"
    },
    {
      "type": "Feature",
      "properties": {
        "@id": "node/1148847241",
        "amenity": "bar"
      },
      "geometry": {
        "type": "Point",
        "coordinates": [
          -51.2950584,
          -25.065977
        ]
      },
      "id": "node/1148847241"
    },
    {
      "type": "Feature",
      "properties": {
        "@id": "node/1183085991",
        "addr:housenumber": "673",
        "amenity": "bar",
        "brewery": "yes;various",
        "name": "Parada Carioca",
        "smoking": "outside"
      },
      "geometry": {
        "type": "Point",
        "coordinates": [
          -43.9416915,
          -19.9747705
        ]
      },
      "id": "node/1183085991"
    },
    {
      "type": "Feature",
      "properties": {
        "@id": "node/1183085995",
        "amenity": "bar",
        "name": "Swingers"
      },
      "geometry": {
        "type": "Point",
        "coordinates": [
          -43.9515462,
          -19.9708127
        ]
      },
      "id": "node/1183085995"
    },
    {
      "type": "Feature",
      "properties": {
        "@id": "node/1183086000",
        "amenity": "bar",
        "name": "Utópica"
      },
      "geometry": {
        "type": "Point",
        "coordinates": [
          -43.9494648,
          -19.9721791
        ]
      },
      "id": "node/1183086000"
    },
    {
      "type": "Feature",
      "properties": {
        "@id": "node/1234307389",
        "amenity": "bar",
        "name": "Tonel de Pinga"
      },
      "geometry": {
        "type": "Point",
        "coordinates": [
          -43.9352378,
          -19.9275036
        ]
      },
      "id": "node/1234307389"
    },
    {
      "type": "Feature",
      "properties": {
        "@id": "node/1239338311",
        "amenity": "bar",
        "name": "Bar Charlotte"
      },
      "geometry": {
        "type": "Point",
        "coordinates": [
          -43.915147,
          -19.9170932
        ]
      },
      "id": "node/1239338311"
    },
    {
      "type": "Feature",
      "properties": {
        "@id": "node/1240914399",
        "amenity": "bar",
        "name": "Bar Tudo Legal"
      },
      "geometry": {
        "type": "Point",
        "coordinates": [
          -43.9454952,
          -19.936758
        ]
      },
      "id": "node/1240914399"
    },
    {
      "type": "Feature",
      "properties": {
        "@id": "node/1240916124",
        "amenity": "bar",
        "name": "Bar Altas Horas"
      },
      "geometry": {
        "type": "Point",
        "coordinates": [
          -43.9454534,
          -19.9360012
        ]
      },
      "id": "node/1240916124"
    },
    {
      "type": "Feature",
      "properties": {
        "@id": "node/1240953189",
        "amenity": "bar",
        "name": "Lafa"
      },
      "geometry": {
        "type": "Point",
        "coordinates": [
          -43.9414469,
          -19.9397634
        ]
      },
      "id": "node/1240953189"
    },
    {
      "type": "Feature",
      "properties": {
        "@id": "node/1250523058",
        "amenity": "bar",
        "name": "2 conto"
      },
      "geometry": {
        "type": "Point",
        "coordinates": [
          -43.9343448,
          -19.8780878
        ]
      },
      "id": "node/1250523058"
    },
    {
      "type": "Feature",
      "properties": {
        "@id": "node/1250523076",
        "amenity": "bar"
      },
      "geometry": {
        "type": "Point",
        "coordinates": [
          -43.9344501,
          -19.878296
        ]
      },
      "id": "node/1250523076"
    },
    {
      "type": "Feature",
      "properties": {
        "@id": "node/1253870717",
        "amenity": "bar"
      },
      "geometry": {
        "type": "Point",
        "coordinates": [
          -43.863893,
          -19.9839289
        ]
      },
      "id": "node/1253870717"
    },
    {
      "type": "Feature",
      "properties": {
        "@id": "node/1253870719",
        "amenity": "bar"
      },
      "geometry": {
        "type": "Point",
        "coordinates": [
          -43.8643298,
          -19.9851033
        ]
      },
      "id": "node/1253870719"
    },
    {
      "type": "Feature",
      "properties": {
        "@id": "node/1268796060",
        "amenity": "bar",
        "food": "yes",
        "name": "Ponto do Frango"
      },
      "geometry": {
        "type": "Point",
        "coordinates": [
          -43.9822972,
          -19.9658558
        ]
      },
      "id": "node/1268796060"
    },
    {
      "type": "Feature",
      "properties": {
        "@id": "node/1268796116",
        "amenity": "bar",
        "name": "Bar do Ricardo",
        "phone": "+55 31 2511-6672"
      },
      "geometry": {
        "type": "Point",
        "coordinates": [
          -43.9818828,
          -19.9656622
        ]
      },
      "id": "node/1268796116"
    },
    {
      "type": "Feature",
      "properties": {
        "@id": "node/1268796120",
        "amenity": "bar",
        "food": "yes",
        "name": "Ximbungo's Bar"
      },
      "geometry": {
        "type": "Point",
        "coordinates": [
          -43.9826989,
          -19.9657222
        ]
      },
      "id": "node/1268796120"
    },
    {
      "type": "Feature",
      "properties": {
        "@id": "node/1268841778",
        "amenity": "bar",
        "food": "yes"
      },
      "geometry": {
        "type": "Point",
        "coordinates": [
          -43.9843085,
          -19.9662678
        ]
      },
      "id": "node/1268841778"
    },
    {
      "type": "Feature",
      "properties": {
        "@id": "node/1299690714",
        "addr:housenumber": "56",
        "addr:postcode": "30330-012",
        "addr:street": "Rua São Romão",
        "amenity": "bar",
        "name": "Butiquim da Carne"
      },
      "geometry": {
        "type": "Point",
        "coordinates": [
          -43.9378351,
          -19.9457371
        ]
      },
      "id": "node/1299690714"
    },
    {
      "type": "Feature",
      "properties": {
        "@id": "node/1310670963",
        "amenity": "bar",
        "name": "Butiquim Quintiliano"
      },
      "geometry": {
        "type": "Point",
        "coordinates": [
          -43.9451267,
          -19.9390281
        ]
      },
      "id": "node/1310670963"
    },
    {
      "type": "Feature",
      "properties": {
        "@id": "node/1310686057",
        "amenity": "bar",
        "name": "Ponto do Espetinho 2"
      },
      "geometry": {
        "type": "Point",
        "coordinates": [
          -43.9475387,
          -19.9387988
        ]
      },
      "id": "node/1310686057"
    },
    {
      "type": "Feature",
      "properties": {
        "@id": "node/1314393411",
        "amenity": "bar",
        "source": "survey"
      },
      "geometry": {
        "type": "Point",
        "coordinates": [
          -44.0580652,
          -19.9404946
        ]
      },
      "id": "node/1314393411"
    },
    {
      "type": "Feature",
      "properties": {
        "@id": "node/1358281249",
        "amenity": "bar",
        "name": "Chic Tácio"
      },
      "geometry": {
        "type": "Point",
        "coordinates": [
          -43.9384085,
          -19.9046139
        ]
      },
      "id": "node/1358281249"
    },
    {
      "type": "Feature",
      "properties": {
        "@id": "node/1424656794",
        "addr:city": "São Paulo",
        "addr:street": "Rua Baluarte",
        "amenity": "bar",
        "name": "Bar do Edu"
      },
      "geometry": {
        "type": "Point",
        "coordinates": [
          -46.6770159,
          -23.6039527
        ]
      },
      "id": "node/1424656794"
    },
    {
      "type": "Feature",
      "properties": {
        "@id": "node/1449295109",
        "amenity": "bar",
        "name": "Berga 8"
      },
      "geometry": {
        "type": "Point",
        "coordinates": [
          -43.9324412,
          -19.9425379
        ]
      },
      "id": "node/1449295109"
    },
    {
      "type": "Feature",
      "properties": {
        "@id": "node/1449295111",
        "amenity": "bar",
        "name": "O Inusitado"
      },
      "geometry": {
        "type": "Point",
        "coordinates": [
          -43.9418235,
          -19.9454828
        ]
      },
      "id": "node/1449295111"
    },
    {
      "type": "Feature",
      "properties": {
        "@id": "node/1449295113",
        "amenity": "bar",
        "name": "Via Cristina"
      },
      "geometry": {
        "type": "Point",
        "coordinates": [
          -43.9412442,
          -19.9458055
        ]
      },
      "id": "node/1449295113"
    },
    {
      "type": "Feature",
      "properties": {
        "@id": "node/1449295115",
        "amenity": "bar",
        "name": "Café do Carmo"
      },
      "geometry": {
        "type": "Point",
        "coordinates": [
          -43.9306226,
          -19.9457652
        ]
      },
      "id": "node/1449295115"
    },
    {
      "type": "Feature",
      "properties": {
        "@id": "node/1449295118",
        "amenity": "bar",
        "name": "Peixe Boi"
      },
      "geometry": {
        "type": "Point",
        "coordinates": [
          -43.9308587,
          -19.9465771
        ]
      },
      "id": "node/1449295118"
    },
    {
      "type": "Feature",
      "properties": {
        "@id": "node/1449295122",
        "amenity": "bar",
        "name": "Almanaque"
      },
      "geometry": {
        "type": "Point",
        "coordinates": [
          -43.9305636,
          -19.9455282
        ]
      },
      "id": "node/1449295122"
    },
    {
      "type": "Feature",
      "properties": {
        "@id": "node/1449295124",
        "amenity": "bar",
        "name": "Espetinho da Esquina"
      },
      "geometry": {
        "type": "Point",
        "coordinates": [
          -43.9318779,
          -19.9390987
        ]
      },
      "id": "node/1449295124"
    },
    {
      "type": "Feature",
      "properties": {
        "@id": "node/1452864409",
        "amenity": "bar",
        "name": "Bar Aurora"
      },
      "geometry": {
        "type": "Point",
        "coordinates": [
          -46.6804604,
          -23.5897587
        ]
      },
      "id": "node/1452864409"
    },
    {
      "type": "Feature",
      "properties": {
        "@id": "node/1456477684",
        "amenity": "bar",
        "name": "Atlanta Snooker Bar"
      },
      "geometry": {
        "type": "Point",
        "coordinates": [
          -46.6894919,
          -23.523766
        ]
      },
      "id": "node/1456477684"
    },
    {
      "type": "Feature",
      "properties": {
        "@id": "node/1457873482",
        "addr:housenumber": "1572",
        "addr:street": "Avenida Independência",
        "amenity": "bar",
        "name": "Na Casa Dela"
      },
      "geometry": {
        "type": "Point",
        "coordinates": [
          -47.6391673,
          -22.7351188
        ]
      },
      "id": "node/1457873482"
    },
    {
      "type": "Feature",
      "properties": {
        "@id": "node/1461955368",
        "amenity": "bar",
        "internet_access": "no",
        "internet_access:fee": "no",
        "name": "Bar do Romão",
        "smoking": "yes",
        "wheelchair": "no"
      },
      "geometry": {
        "type": "Point",
        "coordinates": [
          -49.0883518,
          -25.6107595
        ]
      },
      "id": "node/1461955368"
    },
    {
      "type": "Feature",
      "properties": {
        "@id": "node/1462031750",
        "amenity": "bar",
        "name": "Faculdade do Espeto"
      },
      "geometry": {
        "type": "Point",
        "coordinates": [
          -43.9651686,
          -19.9025363
        ]
      },
      "id": "node/1462031750"
    },
    {
      "type": "Feature",
      "properties": {
        "@id": "node/1481256147",
        "amenity": "bar",
        "name": "Espetinho do Luizinho"
      },
      "geometry": {
        "type": "Point",
        "coordinates": [
          -43.9591016,
          -19.9240476
        ]
      },
      "id": "node/1481256147"
    },
    {
      "type": "Feature",
      "properties": {
        "@id": "node/1504619363",
        "alt_name": "Clube Atlético Mineiro",
        "amenity": "bar",
        "name": "Bar do Galo",
        "source": "Clube Atlético Mineiro"
      },
      "geometry": {
        "type": "Point",
        "coordinates": [
          -43.9712119,
          -19.8621087
        ]
      },
      "id": "node/1504619363"
    },
    {
      "type": "Feature",
      "properties": {
        "@id": "node/1505095154",
        "amenity": "bar",
        "name": "Orizontino",
        "wheelchair": "limited"
      },
      "geometry": {
        "type": "Point",
        "coordinates": [
          -43.9345192,
          -19.9384877
        ]
      },
      "id": "node/1505095154"
    },
    {
      "type": "Feature",
      "properties": {
        "@id": "node/1505096899",
        "amenity": "bar",
        "name": "Apetite Bar & Restaurante"
      },
      "geometry": {
        "type": "Point",
        "coordinates": [
          -43.9360079,
          -19.9176807
        ]
      },
      "id": "node/1505096899"
    },
    {
      "type": "Feature",
      "properties": {
        "@id": "node/1507495539",
        "amenity": "bar",
        "name": "Social"
      },
      "geometry": {
        "type": "Point",
        "coordinates": [
          -43.929325,
          -19.9352364
        ]
      },
      "id": "node/1507495539"
    },
    {
      "type": "Feature",
      "properties": {
        "@id": "node/1507952469",
        "amenity": "bar",
        "name": "Bar do John"
      },
      "geometry": {
        "type": "Point",
        "coordinates": [
          -43.9316319,
          -19.9443037
        ]
      },
      "id": "node/1507952469"
    },
    {
      "type": "Feature",
      "properties": {
        "@id": "node/1511455581",
        "amenity": "bar",
        "name": "Balaio de Gato"
      },
      "geometry": {
        "type": "Point",
        "coordinates": [
          -43.9462549,
          -19.9261134
        ]
      },
      "id": "node/1511455581"
    },
    {
      "type": "Feature",
      "properties": {
        "@id": "node/1514347581",
        "amenity": "bar",
        "name": "Bar do Mandruva"
      },
      "geometry": {
        "type": "Point",
        "coordinates": [
          -43.9489722,
          -19.9411872
        ]
      },
      "id": "node/1514347581"
    },
    {
      "type": "Feature",
      "properties": {
        "@id": "node/1523690513",
        "addr:city": "Belo Horizonte",
        "addr:housenumber": "172",
        "addr:postcode": "30320-380",
        "addr:street": "Rua Major Lopes",
        "addr:suburb": "São Pedro",
        "amenity": "bar",
        "name": "Krug Bier",
        "opening_hours": "Mo-Fr 18:00-01:00; Sa-Su 13:00-01:30",
        "wifi": "free"
      },
      "geometry": {
        "type": "Point",
        "coordinates": [
          -43.9361456,
          -19.9420157
        ]
      },
      "id": "node/1523690513"
    },
    {
      "type": "Feature",
      "properties": {
        "@id": "node/1548792790",
        "amenity": "bar",
        "name": "Edu Bambu"
      },
      "geometry": {
        "type": "Point",
        "coordinates": [
          -47.0657381,
          -22.8831855
        ]
      },
      "id": "node/1548792790"
    },
    {
      "type": "Feature",
      "properties": {
        "@id": "node/1566435882",
        "amenity": "bar"
      },
      "geometry": {
        "type": "Point",
        "coordinates": [
          -51.8443345,
          -21.8739816
        ]
      },
      "id": "node/1566435882"
    },
    {
      "type": "Feature",
      "properties": {
        "@id": "node/1569200697",
        "amenity": "bar",
        "name": "Guga's bar"
      },
      "geometry": {
        "type": "Point",
        "coordinates": [
          -43.9437659,
          -19.9204055
        ]
      },
      "id": "node/1569200697"
    },
    {
      "type": "Feature",
      "properties": {
        "@id": "node/1571405980",
        "amenity": "bar"
      },
      "geometry": {
        "type": "Point",
        "coordinates": [
          -43.940009,
          -19.923755
        ]
      },
      "id": "node/1571405980"
    },
    {
      "type": "Feature",
      "properties": {
        "@id": "node/1584761526",
        "amenity": "bar",
        "name": "Bar Liberdade"
      },
      "geometry": {
        "type": "Point",
        "coordinates": [
          -43.9369708,
          -19.9331507
        ]
      },
      "id": "node/1584761526"
    },
    {
      "type": "Feature",
      "properties": {
        "@id": "node/1594729188",
        "amenity": "bar"
      },
      "geometry": {
        "type": "Point",
        "coordinates": [
          -43.9188395,
          -19.9392347
        ]
      },
      "id": "node/1594729188"
    },
    {
      "type": "Feature",
      "properties": {
        "@id": "node/1594865843",
        "alt_name": "Bar do Carlinho",
        "amenity": "bar",
        "name": "Bar Bota Fé"
      },
      "geometry": {
        "type": "Point",
        "coordinates": [
          -49.9752027,
          -22.2206088
        ]
      },
      "id": "node/1594865843"
    },
    {
      "type": "Feature",
      "properties": {
        "@id": "node/1600741827",
        "addr:street": "Avenida Humaitá",
        "amenity": "bar",
        "name": "Gato Amarelo"
      },
      "geometry": {
        "type": "Point",
        "coordinates": [
          -51.9508258,
          -23.4313422
        ]
      },
      "id": "node/1600741827"
    },
    {
      "type": "Feature",
      "properties": {
        "@id": "node/1608890506",
        "amenity": "bar"
      },
      "geometry": {
        "type": "Point",
        "coordinates": [
          -46.488896,
          -23.5072832
        ]
      },
      "id": "node/1608890506"
    },
    {
      "type": "Feature",
      "properties": {
        "@id": "node/1609582691",
        "amenity": "bar"
      },
      "geometry": {
        "type": "Point",
        "coordinates": [
          -46.4882692,
          -23.5038838
        ]
      },
      "id": "node/1609582691"
    },
    {
      "type": "Feature",
      "properties": {
        "@id": "node/1609582726",
        "amenity": "bar"
      },
      "geometry": {
        "type": "Point",
        "coordinates": [
          -46.4881727,
          -23.5048283
        ]
      },
      "id": "node/1609582726"
    },
    {
      "type": "Feature",
      "properties": {
        "@id": "node/1609582731",
        "addr:city": "São Paulo",
        "addr:suburb": "Ponte Rasa",
        "amenity": "bar"
      },
      "geometry": {
        "type": "Point",
        "coordinates": [
          -46.4887682,
          -23.5066484
        ]
      },
      "id": "node/1609582731"
    },
    {
      "type": "Feature",
      "properties": {
        "@id": "node/1609596352",
        "amenity": "bar"
      },
      "geometry": {
        "type": "Point",
        "coordinates": [
          -46.4810648,
          -23.4931444
        ]
      },
      "id": "node/1609596352"
    },
    {
      "type": "Feature",
      "properties": {
        "@id": "node/1610351078",
        "amenity": "bar",
        "name": "Churrasquinho do Buritis"
      },
      "geometry": {
        "type": "Point",
        "coordinates": [
          -43.96559,
          -19.9703723
        ]
      },
      "id": "node/1610351078"
    },
    {
      "type": "Feature",
      "properties": {
        "@id": "node/1614340602",
        "amenity": "bar"
      },
      "geometry": {
        "type": "Point",
        "coordinates": [
          -43.9293161,
          -19.9290986
        ]
      },
      "id": "node/1614340602"
    },
    {
      "type": "Feature",
      "properties": {
        "@id": "node/1617030884",
        "amenity": "bar",
        "name": "Bar Dududu"
      },
      "geometry": {
        "type": "Point",
        "coordinates": [
          -43.9802233,
          -19.9374793
        ]
      },
      "id": "node/1617030884"
    },
    {
      "type": "Feature",
      "properties": {
        "@id": "node/1621808320",
        "amenity": "bar",
        "name": "Espetinho São Pedro"
      },
      "geometry": {
        "type": "Point",
        "coordinates": [
          -43.9389611,
          -19.9452609
        ]
      },
      "id": "node/1621808320"
    },
    {
      "type": "Feature",
      "properties": {
        "@id": "node/1629174864",
        "amenity": "bar",
        "name": "Maria Bonjour"
      },
      "geometry": {
        "type": "Point",
        "coordinates": [
          -47.0784844,
          -22.8342328
        ]
      },
      "id": "node/1629174864"
    },
    {
      "type": "Feature",
      "properties": {
        "@id": "node/1644889453",
        "addr:street": "Avenida Anchieta",
        "amenity": "bar",
        "name": "Emporio Tavola Allegra",
        "website": "http://www.emporiotavolaallegra.com.br/",
        "wheelchair": "no"
      },
      "geometry": {
        "type": "Point",
        "coordinates": [
          -45.9068435,
          -23.1949371
        ]
      },
      "id": "node/1644889453"
    },
    {
      "type": "Feature",
      "properties": {
        "@id": "node/1645045663",
        "addr:street": "Avenida Barão do Rio Branco",
        "amenity": "bar",
        "name": "Chopp do Barão",
        "website": "http://www.choppdobarao.com.br/"
      },
      "geometry": {
        "type": "Point",
        "coordinates": [
          -45.9046441,
          -23.1972644
        ]
      },
      "id": "node/1645045663"
    },
    {
      "type": "Feature",
      "properties": {
        "@id": "node/1645048490",
        "addr:street": "Avenida Anchieta",
        "amenity": "bar",
        "name": "Capital da Vila"
      },
      "geometry": {
        "type": "Point",
        "coordinates": [
          -45.8977192,
          -23.1928989
        ]
      },
      "id": "node/1645048490"
    },
    {
      "type": "Feature",
      "properties": {
        "@id": "node/1645053169",
        "amenity": "bar",
        "name": "Guten Bier"
      },
      "geometry": {
        "type": "Point",
        "coordinates": [
          -45.8944758,
          -23.1924396
        ]
      },
      "id": "node/1645053169"
    },
    {
      "type": "Feature",
      "properties": {
        "@id": "node/1645080013",
        "amenity": "bar",
        "name": "Disk Bebidas"
      },
      "geometry": {
        "type": "Point",
        "coordinates": [
          -45.895551,
          -23.1973616
        ]
      },
      "id": "node/1645080013"
    },
    {
      "type": "Feature",
      "properties": {
        "@id": "node/1649370170",
        "amenity": "bar"
      },
      "geometry": {
        "type": "Point",
        "coordinates": [
          -49.4458282,
          -25.1468836
        ]
      },
      "id": "node/1649370170"
    },
    {
      "type": "Feature",
      "properties": {
        "@id": "node/1649370177",
        "amenity": "bar"
      },
      "geometry": {
        "type": "Point",
        "coordinates": [
          -49.5255855,
          -25.2176002
        ]
      },
      "id": "node/1649370177"
    },
    {
      "type": "Feature",
      "properties": {
        "@id": "node/1649370181",
        "amenity": "bar"
      },
      "geometry": {
        "type": "Point",
        "coordinates": [
          -49.3313286,
          -25.2425352
        ]
      },
      "id": "node/1649370181"
    },
    {
      "type": "Feature",
      "properties": {
        "@id": "node/1668656090",
        "amenity": "bar",
        "name": "Esquinão do Carrpicho"
      },
      "geometry": {
        "type": "Point",
        "coordinates": [
          -43.9578833,
          -19.9073401
        ]
      },
      "id": "node/1668656090"
    },
    {
      "type": "Feature",
      "properties": {
        "@id": "node/1674844160",
        "amenity": "bar",
        "name": "Santa Teresa",
        "wheelchair": "limited"
      },
      "geometry": {
        "type": "Point",
        "coordinates": [
          -47.8937057,
          -22.0107643
        ]
      },
      "id": "node/1674844160"
    },
    {
      "type": "Feature",
      "properties": {
        "@id": "node/1681017423",
        "amenity": "bar",
        "name": "Bar Chocolate com Pimenta"
      },
      "geometry": {
        "type": "Point",
        "coordinates": [
          -47.8114286,
          -21.1664768
        ]
      },
      "id": "node/1681017423"
    },
    {
      "type": "Feature",
      "properties": {
        "@id": "node/1682282809",
        "amenity": "bar",
        "name": "Bom Paladar"
      },
      "geometry": {
        "type": "Point",
        "coordinates": [
          -49.2000602,
          -25.4182715
        ]
      },
      "id": "node/1682282809"
    },
    {
      "type": "Feature",
      "properties": {
        "@id": "node/1684017328",
        "amenity": "bar",
        "name": "Bar da Erin"
      },
      "geometry": {
        "type": "Point",
        "coordinates": [
          -47.8049798,
          -21.1627657
        ]
      },
      "id": "node/1684017328"
    },
    {
      "type": "Feature",
      "properties": {
        "@id": "node/1685305232",
        "amenity": "bar"
      },
      "geometry": {
        "type": "Point",
        "coordinates": [
          -46.6776388,
          -23.4876052
        ]
      },
      "id": "node/1685305232"
    },
    {
      "type": "Feature",
      "properties": {
        "@id": "node/1707915609",
        "amenity": "bar",
        "name": "Deck",
        "source": "survey"
      },
      "geometry": {
        "type": "Point",
        "coordinates": [
          -43.9718817,
          -19.9052067
        ]
      },
      "id": "node/1707915609"
    },
    {
      "type": "Feature",
      "properties": {
        "@id": "node/1710086691",
        "amenity": "bar",
        "name": "Churrasquinho do Divino"
      },
      "geometry": {
        "type": "Point",
        "coordinates": [
          -43.9599465,
          -19.8947684
        ]
      },
      "id": "node/1710086691"
    },
    {
      "type": "Feature",
      "properties": {
        "@id": "node/1719398379",
        "amenity": "bar",
        "name": "Ouro Beer"
      },
      "geometry": {
        "type": "Point",
        "coordinates": [
          -43.9901066,
          -19.8744732
        ]
      },
      "id": "node/1719398379"
    },
    {
      "type": "Feature",
      "properties": {
        "@id": "node/1719827745",
        "amenity": "bar",
        "name": "Bar do Antônio"
      },
      "geometry": {
        "type": "Point",
        "coordinates": [
          -43.9338936,
          -19.948503
        ]
      },
      "id": "node/1719827745"
    },
    {
      "type": "Feature",
      "properties": {
        "@id": "node/1719975253",
        "amenity": "bar"
      },
      "geometry": {
        "type": "Point",
        "coordinates": [
          -47.3673983,
          -22.7485802
        ]
      },
      "id": "node/1719975253"
    },
    {
      "type": "Feature",
      "properties": {
        "@id": "node/1723315293",
        "addr:housenumber": "291",
        "amenity": "bar",
        "name": "Mulão"
      },
      "geometry": {
        "type": "Point",
        "coordinates": [
          -43.9683517,
          -19.9090992
        ]
      },
      "id": "node/1723315293"
    },
    {
      "type": "Feature",
      "properties": {
        "@id": "node/1723323991",
        "addr:housenumber": "222",
        "addr:street": "Rua Francisco Deslandes",
        "amenity": "bar",
        "name": "222"
      },
      "geometry": {
        "type": "Point",
        "coordinates": [
          -43.9295759,
          -19.9456523
        ]
      },
      "id": "node/1723323991"
    },
    {
      "type": "Feature",
      "properties": {
        "@id": "node/1723328031",
        "amenity": "bar",
        "name": "Adega & Churrasco"
      },
      "geometry": {
        "type": "Point",
        "coordinates": [
          -43.9348736,
          -19.8774492
        ]
      },
      "id": "node/1723328031"
    },
    {
      "type": "Feature",
      "properties": {
        "@id": "node/1723329259",
        "addr:housenumber": "298",
        "addr:street": "Rua Esmeralda",
        "amenity": "bar",
        "name": "Agosto Butequim"
      },
      "geometry": {
        "type": "Point",
        "coordinates": [
          -43.9616199,
          -19.9255897
        ]
      },
      "id": "node/1723329259"
    },
    {
      "type": "Feature",
      "properties": {
        "@id": "node/1723331976",
        "addr:housenumber": "345",
        "addr:street": "Rua Matias Cardoso",
        "amenity": "bar",
        "name": "Ali Ba Bar"
      },
      "geometry": {
        "type": "Point",
        "coordinates": [
          -43.9545872,
          -19.9330097
        ]
      },
      "id": "node/1723331976"
    },
    {
      "type": "Feature",
      "properties": {
        "@id": "node/1723336270",
        "addr:housenumber": "895",
        "addr:street": "Avenida Professor Mário Werneck",
        "amenity": "bar",
        "name": "Autentico's Bar"
      },
      "geometry": {
        "type": "Point",
        "coordinates": [
          -43.9606544,
          -19.9669788
        ]
      },
      "id": "node/1723336270"
    },
    {
      "type": "Feature",
      "properties": {
        "@id": "node/1723344153",
        "addr:housenumber": "287",
        "addr:street": "Rua Numa Nogueira",
        "amenity": "bar",
        "name": "Bar da Cida"
      },
      "geometry": {
        "type": "Point",
        "coordinates": [
          -43.9301994,
          -19.8386614
        ]
      },
      "id": "node/1723344153"
    },
    {
      "type": "Feature",
      "properties": {
        "@id": "node/1723353536",
        "addr:housenumber": "774",
        "addr:street": "Rua Belmiro Braga",
        "amenity": "bar",
        "name": "Pedacinhos do Céu",
        "source": "survey"
      },
      "geometry": {
        "type": "Point",
        "coordinates": [
          -43.9722832,
          -19.9063179
        ]
      },
      "id": "node/1723353536"
    },
    {
      "type": "Feature",
      "properties": {
        "@id": "node/1723412807",
        "addr:housenumber": "473",
        "addr:street": "Rua Pinheiro Chagas",
        "amenity": "bar",
        "name": "Bar do Ferreira"
      },
      "geometry": {
        "type": "Point",
        "coordinates": [
          -44.0125089,
          -19.9810359
        ]
      },
      "id": "node/1723412807"
    },
    {
      "type": "Feature",
      "properties": {
        "@id": "node/1724796042",
        "amenity": "bar",
        "name": "Bar do João"
      },
      "geometry": {
        "type": "Point",
        "coordinates": [
          -43.9647772,
          -19.826876
        ]
      },
      "id": "node/1724796042"
    },
    {
      "type": "Feature",
      "properties": {
        "@id": "node/1726093849",
        "addr:housenumber": "406",
        "addr:street": "Rua Pinheiro Chagas",
        "amenity": "bar",
        "name": "Bar do Zezé"
      },
      "geometry": {
        "type": "Point",
        "coordinates": [
          -44.012732,
          -19.9807762
        ]
      },
      "id": "node/1726093849"
    },
    {
      "type": "Feature",
      "properties": {
        "@id": "node/1726095198",
        "addr:housenumber": "493",
        "addr:street": "Rua Mombaça",
        "amenity": "bar",
        "name": "Barção Moreira"
      },
      "geometry": {
        "type": "Point",
        "coordinates": [
          -43.912707,
          -19.8519534
        ]
      },
      "id": "node/1726095198"
    },
    {
      "type": "Feature",
      "properties": {
        "@id": "node/1733445823",
        "amenity": "bar",
        "name": "Bar e Cervejaria Brasil"
      },
      "geometry": {
        "type": "Point",
        "coordinates": [
          -43.9256463,
          -19.9317742
        ]
      },
      "id": "node/1733445823"
    },
    {
      "type": "Feature",
      "properties": {
        "@id": "node/1738042648",
        "addr:housenumber": "137",
        "addr:postcode": "04514-000",
        "addr:street": "Rua Graúna",
        "alt_name": "Original Bar",
        "amenity": "bar",
        "int_name": "Original Pub",
        "name": "Bar Original",
        "website": "https://www.baroriginal.com.br/",
        "wifi": "free"
      },
      "geometry": {
        "type": "Point",
        "coordinates": [
          -46.6728095,
          -23.6000019
        ]
      },
      "id": "node/1738042648"
    },
    {
      "type": "Feature",
      "properties": {
        "@id": "node/1743759769",
        "amenity": "bar",
        "name": "Tôatôa Butequeria",
        "old_name": "Primo's Bar;Ponto do Tropeiro",
        "source": "Bing,survey"
      },
      "geometry": {
        "type": "Point",
        "coordinates": [
          -43.9708563,
          -19.9015614
        ]
      },
      "id": "node/1743759769"
    },
    {
      "type": "Feature",
      "properties": {
        "@id": "node/1746773549",
        "amenity": "bar",
        "name": "Família Adams"
      },
      "geometry": {
        "type": "Point",
        "coordinates": [
          -43.9314757,
          -19.928784
        ]
      },
      "id": "node/1746773549"
    },
    {
      "type": "Feature",
      "properties": {
        "@id": "node/1747564182",
        "addr:city": "São Paulo",
        "addr:housenumber": "571",
        "addr:postcode": "01403-001",
        "addr:street": "Alameda Joaquim Eugênio de Lima",
        "amenity": "bar",
        "name": "Pier Paulista",
        "opening_hours": "Mo-Fr 08:00-02:00; Sa,Su closed"
      },
      "geometry": {
        "type": "Point",
        "coordinates": [
          -46.6512405,
          -23.5666506
        ]
      },
      "id": "node/1747564182"
    },
    {
      "type": "Feature",
      "properties": {
        "@id": "node/1747606013",
        "addr:city": "São Paulo",
        "addr:housenumber": "269",
        "addr:postcode": "01222-010",
        "addr:street": "Rua Maria Antônia",
        "amenity": "bar",
        "name": "MacFil",
        "outdoor_seating": "yes"
      },
      "geometry": {
        "type": "Point",
        "coordinates": [
          -46.6509966,
          -23.5464307
        ]
      },
      "id": "node/1747606013"
    },
    {
      "type": "Feature",
      "properties": {
        "@id": "node/1764745894",
        "amenity": "bar",
        "name": "Deck"
      },
      "geometry": {
        "type": "Point",
        "coordinates": [
          -46.5887709,
          -23.5676258
        ]
      },
      "id": "node/1764745894"
    },
    {
      "type": "Feature",
      "properties": {
        "@id": "node/1768240615",
        "addr:housenumber": "865",
        "addr:street": "Rua Turquesa",
        "amenity": "bar",
        "name": "Patorroco",
        "source": "Bing,survey"
      },
      "geometry": {
        "type": "Point",
        "coordinates": [
          -43.9661905,
          -19.9265701
        ]
      },
      "id": "node/1768240615"
    },
    {
      "type": "Feature",
      "properties": {
        "@id": "node/1770073745",
        "amenity": "bar"
      },
      "geometry": {
        "type": "Point",
        "coordinates": [
          -46.5880018,
          -23.5680732
        ]
      },
      "id": "node/1770073745"
    },
    {
      "type": "Feature",
      "properties": {
        "@id": "node/1770073784",
        "amenity": "bar"
      },
      "geometry": {
        "type": "Point",
        "coordinates": [
          -46.5877553,
          -23.5663127
        ]
      },
      "id": "node/1770073784"
    },
    {
      "type": "Feature",
      "properties": {
        "@id": "node/1770124420",
        "amenity": "bar",
        "name": "Bar do Juarez"
      },
      "geometry": {
        "type": "Point",
        "coordinates": [
          -46.6927314,
          -23.5598567
        ]
      },
      "id": "node/1770124420"
    },
    {
      "type": "Feature",
      "properties": {
        "@id": "node/1770154948",
        "amenity": "bar"
      },
      "geometry": {
        "type": "Point",
        "coordinates": [
          -50.1594477,
          -25.0939282
        ]
      },
      "id": "node/1770154948"
    },
    {
      "type": "Feature",
      "properties": {
        "@id": "node/1770155504",
        "amenity": "bar",
        "name": "Bar Astral"
      },
      "geometry": {
        "type": "Point",
        "coordinates": [
          -45.0873986,
          -23.4341871
        ]
      },
      "id": "node/1770155504"
    },
    {
      "type": "Feature",
      "properties": {
        "@id": "node/1770155517",
        "amenity": "bar",
        "name": "Kenji's Bar"
      },
      "geometry": {
        "type": "Point",
        "coordinates": [
          -45.0788525,
          -23.4331148
        ]
      },
      "id": "node/1770155517"
    },
    {
      "type": "Feature",
      "properties": {
        "@id": "node/1770955597",
        "amenity": "bar"
      },
      "geometry": {
        "type": "Point",
        "coordinates": [
          -50.1602204,
          -25.0878144
        ]
      },
      "id": "node/1770955597"
    },
    {
      "type": "Feature",
      "properties": {
        "@id": "node/1772868820",
        "amenity": "bar"
      },
      "geometry": {
        "type": "Point",
        "coordinates": [
          -50.1675286,
          -25.0802762
        ]
      },
      "id": "node/1772868820"
    },
    {
      "type": "Feature",
      "properties": {
        "@id": "node/1775615250",
        "amenity": "bar"
      },
      "geometry": {
        "type": "Point",
        "coordinates": [
          -51.1335363,
          -24.8291179
        ]
      },
      "id": "node/1775615250"
    },
    {
      "type": "Feature",
      "properties": {
        "@id": "node/1788014405",
        "amenity": "bar"
      },
      "geometry": {
        "type": "Point",
        "coordinates": [
          -45.7340381,
          -22.68654
        ]
      },
      "id": "node/1788014405"
    },
    {
      "type": "Feature",
      "properties": {
        "@id": "node/1799695175",
        "amenity": "bar",
        "name": "Arquitetos da Pizza Alphaville",
        "website": "https://www.facebook.com/ArquitetosDaPizzaRestauranteAlphaville"
      },
      "geometry": {
        "type": "Point",
        "coordinates": [
          -47.0299835,
          -22.826622
        ]
      },
      "id": "node/1799695175"
    },
    {
      "type": "Feature",
      "properties": {
        "@id": "node/1801257246",
        "amenity": "bar"
      },
      "geometry": {
        "type": "Point",
        "coordinates": [
          -46.433437,
          -23.8973507
        ]
      },
      "id": "node/1801257246"
    },
    {
      "type": "Feature",
      "properties": {
        "@id": "node/1801257262",
        "amenity": "bar"
      },
      "geometry": {
        "type": "Point",
        "coordinates": [
          -46.4342578,
          -23.8980716
        ]
      },
      "id": "node/1801257262"
    },
    {
      "type": "Feature",
      "properties": {
        "@id": "node/1801257264",
        "amenity": "bar"
      },
      "geometry": {
        "type": "Point",
        "coordinates": [
          -46.434754,
          -23.8983929
        ]
      },
      "id": "node/1801257264"
    },
    {
      "type": "Feature",
      "properties": {
        "@id": "node/1801257277",
        "amenity": "bar"
      },
      "geometry": {
        "type": "Point",
        "coordinates": [
          -46.4345877,
          -23.8985572
        ]
      },
      "id": "node/1801257277"
    },
    {
      "type": "Feature",
      "properties": {
        "@id": "node/1801257337",
        "amenity": "bar"
      },
      "geometry": {
        "type": "Point",
        "coordinates": [
          -46.4343491,
          -23.8986234
        ]
      },
      "id": "node/1801257337"
    },
    {
      "type": "Feature",
      "properties": {
        "@id": "node/1801257338",
        "amenity": "bar"
      },
      "geometry": {
        "type": "Point",
        "coordinates": [
          -46.4343356,
          -23.8988269
        ]
      },
      "id": "node/1801257338"
    },
    {
      "type": "Feature",
      "properties": {
        "@id": "node/1801257537",
        "amenity": "bar"
      },
      "geometry": {
        "type": "Point",
        "coordinates": [
          -46.4373691,
          -23.8989593
        ]
      },
      "id": "node/1801257537"
    },
    {
      "type": "Feature",
      "properties": {
        "@id": "node/1801257843",
        "amenity": "bar"
      },
      "geometry": {
        "type": "Point",
        "coordinates": [
          -46.4344321,
          -23.9014042
        ]
      },
      "id": "node/1801257843"
    },
    {
      "type": "Feature",
      "properties": {
        "@id": "node/1801257856",
        "amenity": "bar"
      },
      "geometry": {
        "type": "Point",
        "coordinates": [
          -46.4348586,
          -23.9011492
        ]
      },
      "id": "node/1801257856"
    },
    {
      "type": "Feature",
      "properties": {
        "@id": "node/1801259029",
        "amenity": "bar"
      },
      "geometry": {
        "type": "Point",
        "coordinates": [
          -46.4266054,
          -23.8954526
        ]
      },
      "id": "node/1801259029"
    },
    {
      "type": "Feature",
      "properties": {
        "@id": "node/1801259220",
        "amenity": "bar"
      },
      "geometry": {
        "type": "Point",
        "coordinates": [
          -46.4296283,
          -23.8945747
        ]
      },
      "id": "node/1801259220"
    },
    {
      "type": "Feature",
      "properties": {
        "@id": "node/1801259230",
        "amenity": "bar"
      },
      "geometry": {
        "type": "Point",
        "coordinates": [
          -46.4303686,
          -23.8944447
        ]
      },
      "id": "node/1801259230"
    },
    {
      "type": "Feature",
      "properties": {
        "@id": "node/1801259619",
        "amenity": "bar"
      },
      "geometry": {
        "type": "Point",
        "coordinates": [
          -46.4242773,
          -23.8957395
        ]
      },
      "id": "node/1801259619"
    },
    {
      "type": "Feature",
      "properties": {
        "@id": "node/1801259620",
        "amenity": "bar"
      },
      "geometry": {
        "type": "Point",
        "coordinates": [
          -46.4240707,
          -23.8957763
        ]
      },
      "id": "node/1801259620"
    },
    {
      "type": "Feature",
      "properties": {
        "@id": "node/1801259621",
        "amenity": "bar"
      },
      "geometry": {
        "type": "Point",
        "coordinates": [
          -46.4240895,
          -23.8960411
        ]
      },
      "id": "node/1801259621"
    },
    {
      "type": "Feature",
      "properties": {
        "@id": "node/1801259686",
        "amenity": "bar"
      },
      "geometry": {
        "type": "Point",
        "coordinates": [
          -46.4241539,
          -23.8924338
        ]
      },
      "id": "node/1801259686"
    },
    {
      "type": "Feature",
      "properties": {
        "@id": "node/1825721378",
        "amenity": "bar"
      },
      "geometry": {
        "type": "Point",
        "coordinates": [
          -47.6219774,
          -22.7067817
        ]
      },
      "id": "node/1825721378"
    },
    {
      "type": "Feature",
      "properties": {
        "@id": "node/1827674208",
        "amenity": "bar",
        "name": "Salão Verde"
      },
      "geometry": {
        "type": "Point",
        "coordinates": [
          -44.0112198,
          -19.9797316
        ]
      },
      "id": "node/1827674208"
    },
    {
      "type": "Feature",
      "properties": {
        "@id": "node/1829326146",
        "amenity": "bar",
        "name": "Bar do Lú"
      },
      "geometry": {
        "type": "Point",
        "coordinates": [
          -44.0261548,
          -19.9781045
        ]
      },
      "id": "node/1829326146"
    },
    {
      "type": "Feature",
      "properties": {
        "@id": "node/1833445365",
        "amenity": "bar",
        "name": "Bar do Nono"
      },
      "geometry": {
        "type": "Point",
        "coordinates": [
          -43.9322828,
          -19.9426364
        ]
      },
      "id": "node/1833445365"
    },
    {
      "type": "Feature",
      "properties": {
        "@id": "node/1835364208",
        "amenity": "bar"
      },
      "geometry": {
        "type": "Point",
        "coordinates": [
          -52.3640023,
          -24.0274919
        ]
      },
      "id": "node/1835364208"
    },
    {
      "type": "Feature",
      "properties": {
        "@id": "node/1836081782",
        "amenity": "bar",
        "name": "Padaria Bom Gosto"
      },
      "geometry": {
        "type": "Point",
        "coordinates": [
          -48.5120772,
          -21.4246026
        ]
      },
      "id": "node/1836081782"
    },
    {
      "type": "Feature",
      "properties": {
        "@id": "node/1836149705",
        "amenity": "bar"
      },
      "geometry": {
        "type": "Point",
        "coordinates": [
          -46.6873584,
          -23.558203
        ]
      },
      "id": "node/1836149705"
    },
    {
      "type": "Feature",
      "properties": {
        "@id": "node/1846150927",
        "addr:housenumber": "806",
        "addr:postcode": "05006-000",
        "addr:street": "Rua Turiassú",
        "amenity": "bar",
        "name": "The Clock Rock Bar",
        "website": "http://www.theclock.com.br/",
        "wifi": "no"
      },
      "geometry": {
        "type": "Point",
        "coordinates": [
          -46.6707794,
          -23.5326133
        ]
      },
      "id": "node/1846150927"
    },
    {
      "type": "Feature",
      "properties": {
        "@id": "node/1848645931",
        "addr:housename": "Bar do Adirço",
        "addr:housenumber": "34",
        "addr:postcode": "37508-000",
        "addr:street": "Avenida Juscelino Kubisticheck",
        "amenity": "bar",
        "name": "Bar do Dircinho",
        "note": "Loja (distribudora) do bebida ou bar?",
        "shop": "alcohol",
        "source": "Survey"
      },
      "geometry": {
        "type": "Point",
        "coordinates": [
          -45.5342907,
          -22.4027937
        ]
      },
      "id": "node/1848645931"
    },
    {
      "type": "Feature",
      "properties": {
        "@id": "node/1849662587",
        "amenity": "bar",
        "name": "Casa Antiga"
      },
      "geometry": {
        "type": "Point",
        "coordinates": [
          -43.9406726,
          -19.9269714
        ]
      },
      "id": "node/1849662587"
    },
    {
      "type": "Feature",
      "properties": {
        "@id": "node/1853010608",
        "addr:housenumber": "738",
        "addr:street": "Montes Claros",
        "amenity": "bar",
        "name": "Barezinho Butequim",
        "website": "http://www.facebook.com/barezinhobutiquim"
      },
      "geometry": {
        "type": "Point",
        "coordinates": [
          -43.9286452,
          -19.9460098
        ]
      },
      "id": "node/1853010608"
    },
    {
      "type": "Feature",
      "properties": {
        "@id": "node/1853025732",
        "amenity": "bar",
        "name": "Chxico do Churrasco"
      },
      "geometry": {
        "type": "Point",
        "coordinates": [
          -43.9284313,
          -19.9461447
        ]
      },
      "id": "node/1853025732"
    },
    {
      "type": "Feature",
      "properties": {
        "@id": "node/1857891039",
        "amenity": "bar",
        "name": "Skina Brasil"
      },
      "geometry": {
        "type": "Point",
        "coordinates": [
          -43.9337296,
          -19.9308375
        ]
      },
      "id": "node/1857891039"
    },
    {
      "type": "Feature",
      "properties": {
        "@id": "node/1923689953",
        "amenity": "bar"
      },
      "geometry": {
        "type": "Point",
        "coordinates": [
          -44.1911928,
          -23.1809282
        ]
      },
      "id": "node/1923689953"
    },
    {
      "type": "Feature",
      "properties": {
        "@id": "node/1943727158",
        "amenity": "bar"
      },
      "geometry": {
        "type": "Point",
        "coordinates": [
          -46.5875902,
          -23.5146829
        ]
      },
      "id": "node/1943727158"
    },
    {
      "type": "Feature",
      "properties": {
        "@id": "node/1943727159",
        "amenity": "bar"
      },
      "geometry": {
        "type": "Point",
        "coordinates": [
          -46.5877308,
          -23.5148856
        ]
      },
      "id": "node/1943727159"
    },
    {
      "type": "Feature",
      "properties": {
        "@id": "node/1955773364",
        "amenity": "bar",
        "name": "Bar e Restaurante Brasinha"
      },
      "geometry": {
        "type": "Point",
        "coordinates": [
          -46.5664462,
          -23.4550992
        ]
      },
      "id": "node/1955773364"
    },
    {
      "type": "Feature",
      "properties": {
        "@id": "node/1961074307",
        "amenity": "bar",
        "name": "Bar Chora Menino"
      },
      "geometry": {
        "type": "Point",
        "coordinates": [
          -46.6174006,
          -23.613946
        ]
      },
      "id": "node/1961074307"
    },
    {
      "type": "Feature",
      "properties": {
        "@id": "node/1961074314",
        "amenity": "bar",
        "name": "Bar do Lopes"
      },
      "geometry": {
        "type": "Point",
        "coordinates": [
          -46.6170756,
          -23.6139133
        ]
      },
      "id": "node/1961074314"
    },
    {
      "type": "Feature",
      "properties": {
        "@id": "node/1967374681",
        "addr:street": "Rua Tancredo Neves",
        "amenity": "bar",
        "name": "Espeto do Manoel III"
      },
      "geometry": {
        "type": "Point",
        "coordinates": [
          -43.9928427,
          -19.8788654
        ]
      },
      "id": "node/1967374681"
    },
    {
      "type": "Feature",
      "properties": {
        "@id": "node/1975300367",
        "amenity": "bar"
      },
      "geometry": {
        "type": "Point",
        "coordinates": [
          -49.2185279,
          -25.4750773
        ]
      },
      "id": "node/1975300367"
    },
    {
      "type": "Feature",
      "properties": {
        "@id": "node/1985069221",
        "amenity": "bar",
        "name": "Piano's Bar e Drink's Bar"
      },
      "geometry": {
        "type": "Point",
        "coordinates": [
          -47.9235803,
          -22.5508488
        ]
      },
      "id": "node/1985069221"
    },
    {
      "type": "Feature",
      "properties": {
        "@id": "node/1985206509",
        "amenity": "bar",
        "name": "Estância Piseiro"
      },
      "geometry": {
        "type": "Point",
        "coordinates": [
          -52.5038337,
          -23.946482
        ]
      },
      "id": "node/1985206509"
    },
    {
      "type": "Feature",
      "properties": {
        "@id": "node/2012466836",
        "amenity": "bar",
        "name": "Dom Quixote"
      },
      "geometry": {
        "type": "Point",
        "coordinates": [
          -47.0511609,
          -22.8919555
        ]
      },
      "id": "node/2012466836"
    },
    {
      "type": "Feature",
      "properties": {
        "@id": "node/2012466839",
        "addr:street": "Rua Doutor Sampaio Ferraz",
        "amenity": "bar",
        "name": "Da Vinci"
      },
      "geometry": {
        "type": "Point",
        "coordinates": [
          -47.0509141,
          -22.8917825
        ]
      },
      "id": "node/2012466839"
    },
    {
      "type": "Feature",
      "properties": {
        "@id": "node/2012466844",
        "addr:street": "Rua Doutor Sampaio Ferraz",
        "amenity": "bar",
        "name": "Sociedade Alternativa"
      },
      "geometry": {
        "type": "Point",
        "coordinates": [
          -47.05159,
          -22.8917183
        ]
      },
      "id": "node/2012466844"
    },
    {
      "type": "Feature",
      "properties": {
        "@id": "node/2024134531",
        "amenity": "bar"
      },
      "geometry": {
        "type": "Point",
        "coordinates": [
          -43.9884049,
          -20.0539278
        ]
      },
      "id": "node/2024134531"
    },
    {
      "type": "Feature",
      "properties": {
        "@id": "node/2061043334",
        "amenity": "bar",
        "name": "Bar do Toninho 1"
      },
      "geometry": {
        "type": "Point",
        "coordinates": [
          -46.3163455,
          -23.974644
        ]
      },
      "id": "node/2061043334"
    },
    {
      "type": "Feature",
      "properties": {
        "@id": "node/2061920266",
        "alt_name": "Coco Verde",
        "amenity": "bar",
        "name": "Bar do Bira",
        "wifi": "no"
      },
      "geometry": {
        "type": "Point",
        "coordinates": [
          -44.0179684,
          -19.8347583
        ]
      },
      "id": "node/2061920266"
    },
    {
      "type": "Feature",
      "properties": {
        "@id": "node/2067255499",
        "amenity": "bar"
      },
      "geometry": {
        "type": "Point",
        "coordinates": [
          -46.3121919,
          -23.9804782
        ]
      },
      "id": "node/2067255499"
    },
    {
      "type": "Feature",
      "properties": {
        "@id": "node/2067255513",
        "amenity": "bar"
      },
      "geometry": {
        "type": "Point",
        "coordinates": [
          -46.3109883,
          -23.9788025
        ]
      },
      "id": "node/2067255513"
    },
    {
      "type": "Feature",
      "properties": {
        "@id": "node/2067255521",
        "amenity": "bar"
      },
      "geometry": {
        "type": "Point",
        "coordinates": [
          -46.3110688,
          -23.9789201
        ]
      },
      "id": "node/2067255521"
    },
    {
      "type": "Feature",
      "properties": {
        "@id": "node/2067292709",
        "addr:city": "Santos",
        "addr:housenumber": "475",
        "addr:postcode": "11045-201",
        "addr:street": "Avenida Siqueira Campos",
        "addr:suburb": "Embaré",
        "amenity": "bar",
        "name": "Bar do Jorge 2",
        "phone": "+55 13 3227-2673"
      },
      "geometry": {
        "type": "Point",
        "coordinates": [
          -46.319173,
          -23.9651673
        ]
      },
      "id": "node/2067292709"
    },
    {
      "type": "Feature",
      "properties": {
        "@id": "node/2067292711",
        "amenity": "bar",
        "name": "Kawabanga Snack & Bar"
      },
      "geometry": {
        "type": "Point",
        "coordinates": [
          -46.3190991,
          -23.9637513
        ]
      },
      "id": "node/2067292711"
    },
    {
      "type": "Feature",
      "properties": {
        "@id": "node/2069209881",
        "addr:city": "Santos",
        "addr:housenumber": "36",
        "addr:street": "Rua São José",
        "addr:suburb": "Embaré",
        "amenity": "bar",
        "name": "Aquarium Beer Choperia"
      },
      "geometry": {
        "type": "Point",
        "coordinates": [
          -46.316003,
          -23.9658045
        ]
      },
      "id": "node/2069209881"
    },
    {
      "type": "Feature",
      "properties": {
        "@id": "node/2069209887",
        "amenity": "bar"
      },
      "geometry": {
        "type": "Point",
        "coordinates": [
          -46.317109,
          -23.9653282
        ]
      },
      "id": "node/2069209887"
    },
    {
      "type": "Feature",
      "properties": {
        "@id": "node/2069209891",
        "amenity": "bar"
      },
      "geometry": {
        "type": "Point",
        "coordinates": [
          -46.3146682,
          -23.967534
        ]
      },
      "id": "node/2069209891"
    },
    {
      "type": "Feature",
      "properties": {
        "@id": "node/2069213134",
        "amenity": "bar"
      },
      "geometry": {
        "type": "Point",
        "coordinates": [
          -46.3119975,
          -23.9689703
        ]
      },
      "id": "node/2069213134"
    },
    {
      "type": "Feature",
      "properties": {
        "@id": "node/2069223821",
        "amenity": "bar"
      },
      "geometry": {
        "type": "Point",
        "coordinates": [
          -46.3097069,
          -23.9655537
        ]
      },
      "id": "node/2069223821"
    },
    {
      "type": "Feature",
      "properties": {
        "@id": "node/2069272315",
        "amenity": "bar"
      },
      "geometry": {
        "type": "Point",
        "coordinates": [
          -46.3211103,
          -23.9649461
        ]
      },
      "id": "node/2069272315"
    },
    {
      "type": "Feature",
      "properties": {
        "@id": "node/2093811154",
        "amenity": "bar",
        "name": "Barrueco's Choperia & Salgados"
      },
      "geometry": {
        "type": "Point",
        "coordinates": [
          -50.5187564,
          -21.9343433
        ]
      },
      "id": "node/2093811154"
    },
    {
      "type": "Feature",
      "properties": {
        "@id": "node/2095348656",
        "amenity": "bar",
        "shop": "kiosk"
      },
      "geometry": {
        "type": "Point",
        "coordinates": [
          -50.5011236,
          -22.094676
        ]
      },
      "id": "node/2095348656"
    },
    {
      "type": "Feature",
      "properties": {
        "@id": "node/2098302406",
        "addr:city": "São Paulo",
        "addr:housenumber": "665",
        "addr:postcode": "01035-100",
        "addr:street": "Avenida São João",
        "amenity": "bar",
        "name": "Bar Brahma"
      },
      "geometry": {
        "type": "Point",
        "coordinates": [
          -46.6405953,
          -23.542335
        ]
      },
      "id": "node/2098302406"
    },
    {
      "type": "Feature",
      "properties": {
        "@id": "node/2104230988",
        "amenity": "bar",
        "name": "Bar do Neto"
      },
      "geometry": {
        "type": "Point",
        "coordinates": [
          -43.9344306,
          -19.7813367
        ]
      },
      "id": "node/2104230988"
    },
    {
      "type": "Feature",
      "properties": {
        "@id": "node/2104267190",
        "amenity": "bar",
        "name": "Bar Rock"
      },
      "geometry": {
        "type": "Point",
        "coordinates": [
          -43.9281918,
          -19.7830151
        ]
      },
      "id": "node/2104267190"
    },
    {
      "type": "Feature",
      "properties": {
        "@id": "node/2119604001",
        "amenity": "bar"
      },
      "geometry": {
        "type": "Point",
        "coordinates": [
          -51.3686419,
          -25.2312916
        ]
      },
      "id": "node/2119604001"
    },
    {
      "type": "Feature",
      "properties": {
        "@id": "node/2119654345",
        "amenity": "bar",
        "name": "Bar do Orlando"
      },
      "geometry": {
        "type": "Point",
        "coordinates": [
          -51.02901,
          -25.1601927
        ]
      },
      "id": "node/2119654345"
    },
    {
      "type": "Feature",
      "properties": {
        "@id": "node/2119654346",
        "amenity": "bar"
      },
      "geometry": {
        "type": "Point",
        "coordinates": [
          -51.0898184,
          -25.1136744
        ]
      },
      "id": "node/2119654346"
    },
    {
      "type": "Feature",
      "properties": {
        "@id": "node/2137750200",
        "amenity": "bar",
        "name": "Bar do Cheiroso"
      },
      "geometry": {
        "type": "Point",
        "coordinates": [
          -46.7730194,
          -23.5292186
        ]
      },
      "id": "node/2137750200"
    },
    {
      "type": "Feature",
      "properties": {
        "@id": "node/2162852888",
        "amenity": "bar",
        "name": "Espanta Crise"
      },
      "geometry": {
        "type": "Point",
        "coordinates": [
          -43.9277496,
          -19.9157084
        ]
      },
      "id": "node/2162852888"
    },
    {
      "type": "Feature",
      "properties": {
        "@id": "node/2168311428",
        "amenity": "bar",
        "name": "BarBambu",
        "wifi": "no"
      },
      "geometry": {
        "type": "Point",
        "coordinates": [
          -43.9818786,
          -19.9454753
        ]
      },
      "id": "node/2168311428"
    },
    {
      "type": "Feature",
      "properties": {
        "@id": "node/2213478619",
        "amenity": "bar",
        "name": "Assiciação Águia Dragões de Fogo Moto Clube"
      },
      "geometry": {
        "type": "Point",
        "coordinates": [
          -46.5243395,
          -23.6637088
        ]
      },
      "id": "node/2213478619"
    },
    {
      "type": "Feature",
      "properties": {
        "@id": "node/2213478657",
        "amenity": "bar",
        "name": "Bar do Pato"
      },
      "geometry": {
        "type": "Point",
        "coordinates": [
          -46.5248065,
          -23.6627221
        ]
      },
      "id": "node/2213478657"
    },
    {
      "type": "Feature",
      "properties": {
        "@id": "node/2213479513",
        "amenity": "bar",
        "name": "Bar do Kari"
      },
      "geometry": {
        "type": "Point",
        "coordinates": [
          -46.5270336,
          -23.6605829
        ]
      },
      "id": "node/2213479513"
    },
    {
      "type": "Feature",
      "properties": {
        "@id": "node/2213487134",
        "amenity": "bar",
        "name": "A Gruta"
      },
      "geometry": {
        "type": "Point",
        "coordinates": [
          -46.5254538,
          -23.6634228
        ]
      },
      "id": "node/2213487134"
    },
    {
      "type": "Feature",
      "properties": {
        "@id": "node/2253188747",
        "amenity": "bar",
        "name": "Bar Pequena Garça"
      },
      "geometry": {
        "type": "Point",
        "coordinates": [
          -45.0021987,
          -22.6732325
        ]
      },
      "id": "node/2253188747"
    },
    {
      "type": "Feature",
      "properties": {
        "@id": "node/2256184638",
        "amenity": "bar",
        "name": "Quiosque da Praça"
      },
      "geometry": {
        "type": "Point",
        "coordinates": [
          -45.0086272,
          -22.6648648
        ]
      },
      "id": "node/2256184638"
    },
    {
      "type": "Feature",
      "properties": {
        "@id": "node/2260902128",
        "amenity": "bar",
        "name": "Bar do Carioca"
      },
      "geometry": {
        "type": "Point",
        "coordinates": [
          -45.0086021,
          -22.6697441
        ]
      },
      "id": "node/2260902128"
    },
    {
      "type": "Feature",
      "properties": {
        "@id": "node/2270542282",
        "addr:housenumber": "1185",
        "addr:postcode": "05021-001",
        "addr:street": "Rua Cotoxó",
        "amenity": "bar",
        "name": "Tiro Liro"
      },
      "geometry": {
        "type": "Point",
        "coordinates": [
          -46.6881497,
          -23.536867
        ]
      },
      "id": "node/2270542282"
    },
    {
      "type": "Feature",
      "properties": {
        "@id": "node/2270545083",
        "amenity": "bar",
        "name": "Dona Mathilde"
      },
      "geometry": {
        "type": "Point",
        "coordinates": [
          -46.6890509,
          -23.5363208
        ]
      },
      "id": "node/2270545083"
    },
    {
      "type": "Feature",
      "properties": {
        "@id": "node/2274548049",
        "addr:city": "São Paulo",
        "addr:housenumber": "1106",
        "addr:postcode": "01314-001",
        "addr:street": "Rua Santo Antônio",
        "amenity": "bar",
        "name": "Bar Amigo Giannotti",
        "source": "http://www.ciadosbotecos.com/2011/07/bar-do-amigo-gianotti-bixiga-sao-paulo.html",
        "website": "https://www.facebook.com/BarAmigoGiannotti"
      },
      "geometry": {
        "type": "Point",
        "coordinates": [
          -46.6476537,
          -23.5541744
        ]
      },
      "id": "node/2274548049"
    },
    {
      "type": "Feature",
      "properties": {
        "@id": "node/2283621582",
        "addr:housenumber": "20",
        "addr:street": "Avenida Engenheiro Luis Gomes Cardim Sangirardi",
        "amenity": "bar",
        "name": "The Garden",
        "phone": "+55 11 5082-2520",
        "website": "http://www.thegarden.com.br/"
      },
      "geometry": {
        "type": "Point",
        "coordinates": [
          -46.6292751,
          -23.5790056
        ]
      },
      "id": "node/2283621582"
    },
    {
      "type": "Feature",
      "properties": {
        "@id": "node/2287000736",
        "amenity": "bar",
        "name": "Veríssimo"
      },
      "geometry": {
        "type": "Point",
        "coordinates": [
          -46.6924935,
          -23.6080859
        ]
      },
      "id": "node/2287000736"
    },
    {
      "type": "Feature",
      "properties": {
        "@id": "node/2288249066",
        "amenity": "bar"
      },
      "geometry": {
        "type": "Point",
        "coordinates": [
          -46.7466076,
          -23.3626534
        ]
      },
      "id": "node/2288249066"
    },
    {
      "type": "Feature",
      "properties": {
        "@id": "node/2289931672",
        "amenity": "bar",
        "name": "Marlúcio"
      },
      "geometry": {
        "type": "Point",
        "coordinates": [
          -48.2530984,
          -18.9024371
        ]
      },
      "id": "node/2289931672"
    },
    {
      "type": "Feature",
      "properties": {
        "@id": "node/2291788905",
        "amenity": "bar",
        "source": "Bing"
      },
      "geometry": {
        "type": "Point",
        "coordinates": [
          -43.9237669,
          -19.8887402
        ]
      },
      "id": "node/2291788905"
    },
    {
      "type": "Feature",
      "properties": {
        "@id": "node/2299038649",
        "addr:housenumber": "491",
        "addr:street": "Rua Ramos Batista",
        "amenity": "bar",
        "name": "Excelentíssimo",
        "website": "http://www.excelentissimo.com.br/"
      },
      "geometry": {
        "type": "Point",
        "coordinates": [
          -46.6832743,
          -23.594901
        ]
      },
      "id": "node/2299038649"
    },
    {
      "type": "Feature",
      "properties": {
        "@id": "node/2299039494",
        "amenity": "bar",
        "name": "Wood's",
        "website": "https://www.woodsbar.com.br/saopaulo/home"
      },
      "geometry": {
        "type": "Point",
        "coordinates": [
          -46.682703,
          -23.5956015
        ]
      },
      "id": "node/2299039494"
    },
    {
      "type": "Feature",
      "properties": {
        "@id": "node/2299046834",
        "amenity": "bar",
        "name": "Johnny Wash Moto Pub"
      },
      "geometry": {
        "type": "Point",
        "coordinates": [
          -46.6796131,
          -23.6007115
        ]
      },
      "id": "node/2299046834"
    },
    {
      "type": "Feature",
      "properties": {
        "@id": "node/2301029907",
        "amenity": "bar",
        "name": "Pirata's Bar"
      },
      "geometry": {
        "type": "Point",
        "coordinates": [
          -47.561167,
          -24.7145128
        ]
      },
      "id": "node/2301029907"
    },
    {
      "type": "Feature",
      "properties": {
        "@id": "node/2317888105",
        "amenity": "bar",
        "name": "Coconut"
      },
      "geometry": {
        "type": "Point",
        "coordinates": [
          -46.6510335,
          -23.5405779
        ]
      },
      "id": "node/2317888105"
    },
    {
      "type": "Feature",
      "properties": {
        "@id": "node/2332329659",
        "amenity": "bar",
        "name": "Bar do luizao rodoviaria"
      },
      "geometry": {
        "type": "Point",
        "coordinates": [
          -45.4669393,
          -22.2462897
        ]
      },
      "id": "node/2332329659"
    },
    {
      "type": "Feature",
      "properties": {
        "@id": "node/2344645663",
        "amenity": "bar"
      },
      "geometry": {
        "type": "Point",
        "coordinates": [
          -46.5663872,
          -23.539894
        ]
      },
      "id": "node/2344645663"
    },
    {
      "type": "Feature",
      "properties": {
        "@id": "node/2344676979",
        "amenity": "bar",
        "name": "Padroeiro"
      },
      "geometry": {
        "type": "Point",
        "coordinates": [
          -46.5685705,
          -23.5481707
        ]
      },
      "id": "node/2344676979"
    },
    {
      "type": "Feature",
      "properties": {
        "@id": "node/2344677032",
        "amenity": "bar"
      },
      "geometry": {
        "type": "Point",
        "coordinates": [
          -46.5682913,
          -23.5481218
        ]
      },
      "id": "node/2344677032"
    },
    {
      "type": "Feature",
      "properties": {
        "@id": "node/2348155241",
        "addr:city": "Maringá",
        "addr:housenumber": "361A",
        "addr:postcode": "87060-305",
        "addr:street": "Rua Nair dos Santos Tavares",
        "amenity": "bar",
        "leisure": "fishing",
        "name": "Pesqueiro São José",
        "phone": "+55-44-3262-1610",
        "source": "survey"
      },
      "geometry": {
        "type": "Point",
        "coordinates": [
          -51.9674672,
          -23.4388413
        ]
      },
      "id": "node/2348155241"
    },
    {
      "type": "Feature",
      "properties": {
        "@id": "node/2361240815",
        "addr:city": "Guapé-MG",
        "addr:postcode": "37177-000",
        "amenity": "bar",
        "name": "Chopperia do Kiko"
      },
      "geometry": {
        "type": "Point",
        "coordinates": [
          -45.9217761,
          -20.7655523
        ]
      },
      "id": "node/2361240815"
    },
    {
      "type": "Feature",
      "properties": {
        "@id": "node/2362588539",
        "amenity": "bar",
        "name": "Bar e Mercearia Zanirato"
      },
      "geometry": {
        "type": "Point",
        "coordinates": [
          -49.4336723,
          -20.7851738
        ]
      },
      "id": "node/2362588539"
    },
    {
      "type": "Feature",
      "properties": {
        "@id": "node/2363318977",
        "addr:housename": "Casa",
        "addr:housenumber": "320",
        "addr:postcode": "31680-120",
        "addr:street": "Rua Tenente Marino Freire",
        "alt_name": "Parauna's bar",
        "amenity": "bar",
        "name": "Bar do Jesu",
        "wifi": "no"
      },
      "geometry": {
        "type": "Point",
        "coordinates": [
          -43.9934044,
          -19.8018729
        ]
      },
      "id": "node/2363318977"
    },
    {
      "type": "Feature",
      "properties": {
        "@id": "node/2381568499",
        "amenity": "bar",
        "name": "Bar da Galinha"
      },
      "geometry": {
        "type": "Point",
        "coordinates": [
          -43.7075195,
          -22.2438588
        ]
      },
      "id": "node/2381568499"
    },
    {
      "type": "Feature",
      "properties": {
        "@id": "node/2383669880",
        "addr:housenumber": "497",
        "addr:postcode": "80420-000",
        "addr:street": "Rua Comendador Araújo",
        "alt_name": "Tesoros de Cuba",
        "amenity": "bar",
        "internet_access": "wlan",
        "name": "Tesoros de Cuba Charutaria",
        "smoking": "yes",
        "source": "survey",
        "website": "http://www.facebook.com/tesorosdecuba"
      },
      "geometry": {
        "type": "Point",
        "coordinates": [
          -49.2800079,
          -25.4369223
        ]
      },
      "id": "node/2383669880"
    },
    {
      "type": "Feature",
      "properties": {
        "@id": "node/2396920158",
        "amenity": "bar",
        "name": "Bar do Miro"
      },
      "geometry": {
        "type": "Point",
        "coordinates": [
          -47.7595049,
          -21.0158198
        ]
      },
      "id": "node/2396920158"
    },
    {
      "type": "Feature",
      "properties": {
        "@id": "node/2396920857",
        "amenity": "bar",
        "name": "Bar do Beto"
      },
      "geometry": {
        "type": "Point",
        "coordinates": [
          -47.7600494,
          -21.0156495
        ]
      },
      "id": "node/2396920857"
    },
    {
      "type": "Feature",
      "properties": {
        "@id": "node/2403078209",
        "amenity": "bar",
        "name": "Xico da Carne"
      },
      "geometry": {
        "type": "Point",
        "coordinates": [
          -43.9083361,
          -19.8792892
        ]
      },
      "id": "node/2403078209"
    },
    {
      "type": "Feature",
      "properties": {
        "@id": "node/2403078212",
        "amenity": "bar",
        "name": "Via Gerais"
      },
      "geometry": {
        "type": "Point",
        "coordinates": [
          -43.9075135,
          -19.8916043
        ]
      },
      "id": "node/2403078212"
    },
    {
      "type": "Feature",
      "properties": {
        "@id": "node/2406008129",
        "addr:city": "Campo Magro",
        "addr:street": "Estrada do Cerne",
        "amenity": "bar",
        "name": "Kabana Bacana"
      },
      "geometry": {
        "type": "Point",
        "coordinates": [
          -49.5587683,
          -25.2791657
        ]
      },
      "id": "node/2406008129"
    },
    {
      "type": "Feature",
      "properties": {
        "@id": "node/2407526837",
        "addr:street": "Avenida Rio Branco",
        "amenity": "bar",
        "name": "Badulaque"
      },
      "geometry": {
        "type": "Point",
        "coordinates": [
          -51.9551583,
          -23.4277581
        ]
      },
      "id": "node/2407526837"
    },
    {
      "type": "Feature",
      "properties": {
        "@id": "node/2412799416",
        "amenity": "bar",
        "name": "Venda do Márcio",
        "wifi": "no"
      },
      "geometry": {
        "type": "Point",
        "coordinates": [
          -44.2158554,
          -20.710267
        ]
      },
      "id": "node/2412799416"
    },
    {
      "type": "Feature",
      "properties": {
        "@id": "node/2420227765",
        "amenity": "bar",
        "name": "D.O.C. Emporium",
        "source": "survey",
        "website": "http://www.docemporium.com/"
      },
      "geometry": {
        "type": "Point",
        "coordinates": [
          -44.5245946,
          -22.4394155
        ]
      },
      "id": "node/2420227765"
    },
    {
      "type": "Feature",
      "properties": {
        "@id": "node/2420783737",
        "amenity": "bar",
        "name": "Bar do Bola"
      },
      "geometry": {
        "type": "Point",
        "coordinates": [
          -46.9992249,
          -24.3276774
        ]
      },
      "id": "node/2420783737"
    },
    {
      "type": "Feature",
      "properties": {
        "@id": "node/2424698591",
        "amenity": "bar",
        "name": "Sapore d'Italia Bar & Cafe"
      },
      "geometry": {
        "type": "Point",
        "coordinates": [
          -44.1743359,
          -21.1101339
        ]
      },
      "id": "node/2424698591"
    },
    {
      "type": "Feature",
      "properties": {
        "@id": "node/2427984113",
        "amenity": "bar"
      },
      "geometry": {
        "type": "Point",
        "coordinates": [
          -46.7352042,
          -23.4499051
        ]
      },
      "id": "node/2427984113"
    },
    {
      "type": "Feature",
      "properties": {
        "@id": "node/2428025835",
        "amenity": "bar"
      },
      "geometry": {
        "type": "Point",
        "coordinates": [
          -46.8591089,
          -23.4838618
        ]
      },
      "id": "node/2428025835"
    },
    {
      "type": "Feature",
      "properties": {
        "@id": "node/2432374965",
        "amenity": "bar",
        "name": "Barao do Café"
      },
      "geometry": {
        "type": "Point",
        "coordinates": [
          -46.332782,
          -23.968344
        ]
      },
      "id": "node/2432374965"
    },
    {
      "type": "Feature",
      "properties": {
        "@id": "node/2435336646",
        "amenity": "bar",
        "name": "Boi Bento"
      },
      "geometry": {
        "type": "Point",
        "coordinates": [
          -43.9501065,
          -19.9621626
        ]
      },
      "id": "node/2435336646"
    },
    {
      "type": "Feature",
      "properties": {
        "@id": "node/2437630211",
        "addr:housenumber": "Km, 6",
        "addr:postcode": "07600-000",
        "addr:street": "Estrada da Roseira",
        "amenity": "bar",
        "name": "Bar do Pedrão"
      },
      "geometry": {
        "type": "Point",
        "coordinates": [
          -46.6158612,
          -23.3657383
        ]
      },
      "id": "node/2437630211"
    },
    {
      "type": "Feature",
      "properties": {
        "@id": "node/2443151923",
        "amenity": "bar",
        "name": "Arco Íris Bar"
      },
      "geometry": {
        "type": "Point",
        "coordinates": [
          -44.2949549,
          -22.4151639
        ]
      },
      "id": "node/2443151923"
    },
    {
      "type": "Feature",
      "properties": {
        "@id": "node/2444923222",
        "amenity": "bar",
        "name": "Bar do Miguel"
      },
      "geometry": {
        "type": "Point",
        "coordinates": [
          -45.6272938,
          -23.0282318
        ]
      },
      "id": "node/2444923222"
    },
    {
      "type": "Feature",
      "properties": {
        "@id": "node/2451010713",
        "addr:city": "Belo Horizonte",
        "addr:housename": "JOSÉ PINTO DE MOURA",
        "addr:housenumber": "480",
        "addr:street": "Rua José Pinto de Moura",
        "amenity": "bar",
        "name": "D'Gust Burguer"
      },
      "geometry": {
        "type": "Point",
        "coordinates": [
          -43.9358862,
          -19.8244541
        ]
      },
      "id": "node/2451010713"
    },
    {
      "type": "Feature",
      "properties": {
        "@id": "node/2463299732",
        "amenity": "bar",
        "name": "Bar do Mocréia"
      },
      "geometry": {
        "type": "Point",
        "coordinates": [
          -44.3447396,
          -22.4615095
        ]
      },
      "id": "node/2463299732"
    },
    {
      "type": "Feature",
      "properties": {
        "@id": "node/2464569858",
        "amenity": "bar",
        "name": "Bar Bonamigos"
      },
      "geometry": {
        "type": "Point",
        "coordinates": [
          -44.285055,
          -22.424175
        ]
      },
      "id": "node/2464569858"
    },
    {
      "type": "Feature",
      "properties": {
        "@id": "node/2480793003",
        "addr:city": "São Paulo",
        "addr:housenumber": "807",
        "addr:postcode": "01545-001",
        "addr:street": "Rua Coronel Diogo",
        "amenity": "bar",
        "name": "Bartataria da Vovó"
      },
      "geometry": {
        "type": "Point",
        "coordinates": [
          -46.6199989,
          -23.5781452
        ]
      },
      "id": "node/2480793003"
    },
    {
      "type": "Feature",
      "properties": {
        "@id": "node/2482176096",
        "amenity": "bar",
        "name": "Deorides Bar",
        "source": "Local"
      },
      "geometry": {
        "type": "Point",
        "coordinates": [
          -44.285717,
          -22.423561
        ]
      },
      "id": "node/2482176096"
    },
    {
      "type": "Feature",
      "properties": {
        "@id": "node/2482176892",
        "amenity": "bar",
        "name": "Bar do Gedeon",
        "source": "Local"
      },
      "geometry": {
        "type": "Point",
        "coordinates": [
          -44.285614,
          -22.423642
        ]
      },
      "id": "node/2482176892"
    },
    {
      "type": "Feature",
      "properties": {
        "@id": "node/2482213468",
        "amenity": "bar",
        "name": "Gelu's Bar",
        "source": "Local"
      },
      "geometry": {
        "type": "Point",
        "coordinates": [
          -44.309177,
          -22.447003
        ]
      },
      "id": "node/2482213468"
    },
    {
      "type": "Feature",
      "properties": {
        "@id": "node/2482666238",
        "amenity": "bar",
        "name": "Toca do Tatu Bar",
        "outdoor_seating": "no",
        "source": "Local",
        "wheelchair": "no"
      },
      "geometry": {
        "type": "Point",
        "coordinates": [
          -44.304521,
          -22.450721
        ]
      },
      "id": "node/2482666238"
    },
    {
      "type": "Feature",
      "properties": {
        "@id": "node/2498779625",
        "addr:street": "Rua Cardoso de Almeida",
        "amenity": "bar",
        "name": "Padoca"
      },
      "geometry": {
        "type": "Point",
        "coordinates": [
          -46.6722359,
          -23.5426562
        ]
      },
      "id": "node/2498779625"
    },
    {
      "type": "Feature",
      "properties": {
        "@id": "node/2525435322",
        "addr:city": "Volta Redonda",
        "amenity": "bar",
        "food": "yes",
        "name": "SantoGraal",
        "outdoor_seating": "yes",
        "smoking": "separated",
        "source": "Local knowledge"
      },
      "geometry": {
        "type": "Point",
        "coordinates": [
          -44.106209,
          -22.518787
        ]
      },
      "id": "node/2525435322"
    },
    {
      "type": "Feature",
      "properties": {
        "@id": "node/2525439189",
        "amenity": "bar",
        "food": "yes",
        "name": "Bomcalhau",
        "outdoor_seating": "no",
        "smoking": "no",
        "source": "Local knowledge"
      },
      "geometry": {
        "type": "Point",
        "coordinates": [
          -44.106292,
          -22.518599
        ]
      },
      "id": "node/2525439189"
    },
    {
      "type": "Feature",
      "properties": {
        "@id": "node/2558589778",
        "addr:city": "São Paulo",
        "addr:housenumber": "163",
        "addr:postcode": "05443-010",
        "addr:street": "Rua Delfina",
        "amenity": "bar",
        "contact:phone": "+55 11 3815-1364",
        "contact:website": "https://subastor.com.br",
        "name": "SubAstor",
        "opening_hours": "Tu-Th 19:30-02:00; Fr-Sa 19:30-03:00"
      },
      "geometry": {
        "type": "Point",
        "coordinates": [
          -46.6942699,
          -23.5540368
        ]
      },
      "id": "node/2558589778"
    },
    {
      "type": "Feature",
      "properties": {
        "@id": "node/2560583876",
        "amenity": "bar",
        "name": "Venda dos Pretos"
      },
      "geometry": {
        "type": "Point",
        "coordinates": [
          -51.2210765,
          -23.3878263
        ]
      },
      "id": "node/2560583876"
    },
    {
      "type": "Feature",
      "properties": {
        "@id": "node/2584158777",
        "amenity": "bar",
        "name": "Bar Praia"
      },
      "geometry": {
        "type": "Point",
        "coordinates": [
          -47.4284104,
          -22.5581457
        ]
      },
      "id": "node/2584158777"
    },
    {
      "type": "Feature",
      "properties": {
        "@id": "node/2584158786",
        "amenity": "bar",
        "name": "Bar Amoroso"
      },
      "geometry": {
        "type": "Point",
        "coordinates": [
          -47.4269747,
          -22.5595211
        ]
      },
      "id": "node/2584158786"
    },
    {
      "type": "Feature",
      "properties": {
        "@id": "node/2587421134",
        "addr:city": "Curitiba",
        "addr:country": "BR",
        "addr:housenumber": "392",
        "addr:postcode": "80410-140",
        "addr:street": "Alameda Augusto Stellfeld",
        "amenity": "bar",
        "cuisine": "burger;sandwich",
        "name": "Gold Skull Bar",
        "phone": "(41) 9615-9029",
        "smoking": "no",
        "website": "https://www.facebook.com/BarGoldieSkull/info"
      },
      "geometry": {
        "type": "Point",
        "coordinates": [
          -49.2779712,
          -25.4295272
        ]
      },
      "id": "node/2587421134"
    },
    {
      "type": "Feature",
      "properties": {
        "@id": "node/2601119831",
        "addr:city": "Guaraqueçaba",
        "addr:housename": "Bar e Restaurante Mercearia Rodrigues",
        "addr:housenumber": "4",
        "addr:postcode": "83.390-000",
        "addr:street": "Rua Dr. Ramos Figueira",
        "amenity": "bar",
        "atm": "yes",
        "cuisine": "regional",
        "delivery": "no",
        "food": "yes",
        "internet_access": "wlan",
        "name": "Mercearia Rodrigues",
        "outdoor_seating": "yes",
        "phone": "+55 41 3482-1210",
        "smoking": "outside",
        "website": "https://pt-br.facebook.com/pages/Mercearia-Rodrigues/107852129370110",
        "wheelchair": "limited"
      },
      "geometry": {
        "type": "Point",
        "coordinates": [
          -48.330505,
          -25.297556
        ]
      },